roads:
  - id: szr_downtown
    name: Sheikh Zayed Road - Downtown
    lat: 25.2048
    lon: 55.2708

  - id: marina
    name: Dubai Marina
    lat: 25.0800
    lon: 55.1400

  - id: business_bay
    name: Business Bay
    lat: 25.1866
    lon: 55.2647

  - id: al_khail
    name: Al Khail Road
    lat: 25.1230
    lon: 55.2370

  - id: emirates_road
    name: Emirates Road
    lat: 25.2500
    lon: 55.4500

    